{
"type": "FeatureCollection",
"name": "nodes",
"crs": { "type": "name", "properties": { "name": "urn:ogc:def:crs:OGC:1.3:CRS84" } },
"features": [
{ "type": "Feature", "properties": { "ID": 11, "NAME": "South Marsh East Lykes", "TYPE": "obs. pt", "LAYER": 1, "OBSN": 68, "OBSNINTERV": 1.0, "OBSNCONF(%": 95, "OBSNSTDDEV": 0.51, "COMPUTEDN": -9999999.0, "RESIDUALN": 0.0 }, "geometry": { "type": "Point", "coordinates": [ -81.188430884162884, 27.129142030078526, 0.0 ] } },
{ "type": "Feature", "properties": { "ID": 12, "NAME": "W6", "TYPE": "obs. pt", "LAYER": 1, "OBSN": 69, "OBSNINTERV": 1.0, "OBSNCONF(%": 95, "OBSNSTDDEV": 0.51, "COMPUTEDN": -9999999.0, "RESIDUALN": 0.0 }, "geometry": { "type": "Point", "coordinates": [ -81.202084818438564, 27.132413148097669, 0.0 ] } },
{ "type": "Feature", "properties": { "ID": 13, "NAME": "South Marsh Center", "TYPE": "obs. pt", "LAYER": 1, "OBSN": 70, "OBSNINTERV": 1.0, "OBSNCONF(%": 95, "OBSNSTDDEV": 0.51, "COMPUTEDN": -9999999.0, "RESIDUALN": 0.0 }, "geometry": { "type": "Point", "coordinates": [ -81.201804813276468, 27.123731637817162, 0.0 ] } },
{ "type": "Feature", "properties": { "ID": 14, "NAME": "South Marsh West", "TYPE": "obs. pt", "LAYER": 1, "OBSN": 71, "OBSNINTERV": 1.0, "OBSNCONF(%": 95, "OBSNSTDDEV": 0.51, "COMPUTEDN": -9999999.0, "RESIDUALN": 0.0 }, "geometry": { "type": "Point", "coordinates": [ -81.222151359667691, 27.128388499878326, 0.0 ] } },
{ "type": "Feature", "properties": { "ID": 15, "NAME": "770 East", "TYPE": "obs. pt", "LAYER": 1, "OBSN": 72, "OBSNINTERV": 1.0, "OBSNCONF(%": 95, "OBSNSTDDEV": 0.51, "COMPUTEDN": -9999999.0, "RESIDUALN": 0.0 }, "geometry": { "type": "Point", "coordinates": [ -81.219188565124881, 27.143129824132956, 0.0 ] } },
{ "type": "Feature", "properties": { "ID": 16, "NAME": "West Marsh Center", "TYPE": "obs. pt", "LAYER": 1, "OBSN": 73, "OBSNINTERV": 1.0, "OBSNCONF(%": 95, "OBSNSTDDEV": 0.51, "COMPUTEDN": -9999999.0, "RESIDUALN": 0.0 }, "geometry": { "type": "Point", "coordinates": [ -81.224070844021867, 27.176652936285446, 0.0 ] } },
{ "type": "Feature", "properties": { "ID": 17, "NAME": "West Marsh South", "TYPE": "obs. pt", "LAYER": 1, "OBSN": 74, "OBSNINTERV": 1.0, "OBSNCONF(%": 95, "OBSNSTDDEV": 0.51, "COMPUTEDN": -9999999.0, "RESIDUALN": 0.0 }, "geometry": { "type": "Point", "coordinates": [ -81.221741194935376, 27.158916049812561, 0.0 ] } },
{ "type": "Feature", "properties": { "ID": 18, "NAME": "Stargrass Field", "TYPE": "obs. pt", "LAYER": 1, "OBSN": 75, "OBSNINTERV": 1.0, "OBSNCONF(%": 95, "OBSNSTDDEV": 0.51, "COMPUTEDN": -9999999.0, "RESIDUALN": 0.0 }, "geometry": { "type": "Point", "coordinates": [ -81.213920606262931, 27.170281184826973, 0.0 ] } },
{ "type": "Feature", "properties": { "ID": 19, "NAME": "West Marsh North", "TYPE": "obs. pt", "LAYER": 1, "OBSN": 76, "OBSNINTERV": 1.0, "OBSNCONF(%": 95, "OBSNSTDDEV": 0.51, "COMPUTEDN": -9999999.0, "RESIDUALN": 0.0 }, "geometry": { "type": "Point", "coordinates": [ -81.223986434154128, 27.18521387180763, 0.0 ] } },
{ "type": "Feature", "properties": { "ID": 20, "NAME": "Tropical West", "TYPE": "obs. pt", "LAYER": 1, "OBSN": 77, "OBSNINTERV": 1.0, "OBSNCONF(%": 95, "OBSNSTDDEV": 0.51, "COMPUTEDN": -9999999.0, "RESIDUALN": 0.0 }, "geometry": { "type": "Point", "coordinates": [ -81.212137219311415, 27.185196535338459, 0.0 ] } },
{ "type": "Feature", "properties": { "ID": 21, "NAME": "Bull Field North", "TYPE": "obs. pt", "LAYER": 1, "OBSN": 78, "OBSNINTERV": 1.0, "OBSNCONF(%": 95, "OBSNSTDDEV": 0.51, "COMPUTEDN": -9999999.0, "RESIDUALN": 0.0 }, "geometry": { "type": "Point", "coordinates": [ -81.210000648622682, 27.156320745720301, 0.0 ] } },
{ "type": "Feature", "properties": { "ID": 22, "NAME": "Eucalyptus", "TYPE": "obs. pt", "LAYER": 1, "OBSN": 79, "OBSNINTERV": 1.0, "OBSNCONF(%": 95, "OBSNSTDDEV": 0.51, "COMPUTEDN": -9999999.0, "RESIDUALN": 0.0 }, "geometry": { "type": "Point", "coordinates": [ -81.202028030593993, 27.162387204067365, 0.0 ] } },
{ "type": "Feature", "properties": { "ID": 23, "NAME": "Tropical East South", "TYPE": "obs. pt", "LAYER": 1, "OBSN": 80, "OBSNINTERV": 1.0, "OBSNCONF(%": 95, "OBSNSTDDEV": 0.51, "COMPUTEDN": -9999999.0, "RESIDUALN": 0.0 }, "geometry": { "type": "Point", "coordinates": [ -81.19941740950955, 27.18514917843045, 0.0 ] } },
{ "type": "Feature", "properties": { "ID": 24, "NAME": "South Kuhn", "TYPE": "obs. pt", "LAYER": 1, "OBSN": 81, "OBSNINTERV": 1.0, "OBSNCONF(%": 95, "OBSNSTDDEV": 0.51, "COMPUTEDN": -9999999.0, "RESIDUALN": 0.0 }, "geometry": { "type": "Point", "coordinates": [ -81.194711404565922, 27.165910459422367, 0.0 ] } },
{ "type": "Feature", "properties": { "ID": 25, "NAME": "WRP East Marsh North", "TYPE": "obs. pt", "LAYER": 1, "OBSN": 82, "OBSNINTERV": 1.0, "OBSNCONF(%": 95, "OBSNSTDDEV": 0.51, "COMPUTEDN": -9999999.0, "RESIDUALN": 0.0 }, "geometry": { "type": "Point", "coordinates": [ -81.179025003121836, 27.171122317861482, 0.0 ] } },
{ "type": "Feature", "properties": { "ID": 26, "NAME": "Shop Field", "TYPE": "obs. pt", "LAYER": 1, "OBSN": 83, "OBSNINTERV": 1.0, "OBSNCONF(%": 95, "OBSNSTDDEV": 0.51, "COMPUTEDN": -9999999.0, "RESIDUALN": 0.0 }, "geometry": { "type": "Point", "coordinates": [ -81.188359630312632, 27.158167063452868, 0.0 ] } },
{ "type": "Feature", "properties": { "ID": 27, "NAME": "East Marsh South", "TYPE": "obs. pt", "LAYER": 1, "OBSN": 84, "OBSNINTERV": 1.0, "OBSNCONF(%": 95, "OBSNSTDDEV": 0.51, "COMPUTEDN": -9999999.0, "RESIDUALN": 0.0 }, "geometry": { "type": "Point", "coordinates": [ -81.175964724658542, 27.157434904740157, 0.0 ] } },
{ "type": "Feature", "properties": { "ID": 28, "NAME": "Grove", "TYPE": "obs. pt", "LAYER": 1, "OBSN": 85, "OBSNINTERV": 1.0, "OBSNCONF(%": 95, "OBSNSTDDEV": 0.51, "COMPUTEDN": -9999999.0, "RESIDUALN": 0.0 }, "geometry": { "type": "Point", "coordinates": [ -81.196895463021747, 27.141578333059783, 0.0 ] } },
{ "type": "Feature", "properties": { "ID": 29, "NAME": "800 Arces #1", "TYPE": "obs. pt", "LAYER": 1, "OBSN": 86, "OBSNINTERV": 1.0, "OBSNCONF(%": 95, "OBSNSTDDEV": 0.51, "COMPUTEDN": -9999999.0, "RESIDUALN": 0.0 }, "geometry": { "type": "Point", "coordinates": [ -81.188662180724421, 27.144214015092892, 0.0 ] } },
{ "type": "Feature", "properties": { "ID": 30, "NAME": "S5", "TYPE": "obs. pt", "LAYER": 1, "OBSN": 87, "OBSNINTERV": 1.0, "OBSNCONF(%": 95, "OBSNSTDDEV": 0.51, "COMPUTEDN": -9999999.0, "RESIDUALN": 0.0 }, "geometry": { "type": "Point", "coordinates": [ -81.175358158978625, 27.145155573384784, 0.0 ] } },
{ "type": "Feature", "properties": { "ID": 31, "NAME": "Ceiling #3", "TYPE": "obs. pt", "LAYER": 1, "OBSN": 88, "OBSNINTERV": 1.0, "OBSNCONF(%": 95, "OBSNSTDDEV": 0.51, "COMPUTEDN": -9999999.0, "RESIDUALN": 0.0 }, "geometry": { "type": "Point", "coordinates": [ -81.20834159899124, 27.143933103232438, 0.0 ] } }
]
}
