{
"type": "FeatureCollection",
"name": "transient",
"crs": { "type": "name", "properties": { "name": "urn:ogc:def:crs:OGC:1.3:CRS84" } },
"features": [
{ "type": "Feature", "properties": { "OBJECTID_1": 1, "Name": "GW_TES", "Point_x": 480069.875, "Point_y": 3006520.264, "Value": 26.85126301, "GWL": 28.65126301 }, "geometry": { "type": "Point", "coordinates": [ -81.201200106985283, 27.181197295327966, 25.651299999997718 ] } },
{ "type": "Feature", "properties": { "OBJECTID_1": 3, "Name": "EM3", "Point_x": 482702.015, "Point_y": 3005893.512, "Value": 24.37965955, "GWL": 23.17965955 }, "geometry": { "type": "Point", "coordinates": [ -81.174619144929437, 27.175574318139262, 23.179699999993318 ] } },
{ "type": "Feature", "properties": { "OBJECTID_1": 4, "Name": "EM2", "Point_x": 482468.916, "Point_y": 3005676.743, "Value": 23.82303996, "GWL": 22.62303996 }, "geometry": { "type": "Point", "coordinates": [ -81.176969141092428, 27.173614312267411, 22.623000000006869 ] } },
{ "type": "Feature", "properties": { "OBJECTID_1": 5, "Name": "GW_WetFG4", "Point_x": 481442.292, "Point_y": 3000072.674, "Value": 27.41835531, "GWL": 26.21835531 }, "geometry": { "type": "Point", "coordinates": [ -81.187248196950861, 27.123005331542601, 26.218399999997928 ] } },
{ "type": "Feature", "properties": { "OBJECTID_1": 6, "Name": "SNP_North_Twr", "Point_x": 478203.703, "Point_y": 3005983.771, "Value": 31.44439158, "GWL": 30.24439158 }, "geometry": { "type": "Point", "coordinates": [ -81.220030091456124, 27.176325422467801, 30.244399999995949 ] } },
{ "type": "Feature", "properties": { "OBJECTID_1": 7, "Name": "SNP_South_Twr", "Point_x": 478241.106, "Point_y": 3004958.592, "Value": 29.18147997, "GWL": 27.98147997 }, "geometry": { "type": "Point", "coordinates": [ -81.219634410239394, 27.1670703772464, 27.981499999994412 ] } },
{ "type": "Feature", "properties": { "OBJECTID_1": 8, "Name": "Improved North tower", "Point_x": 480209.836, "Point_y": 3007262.935, "Value": 37.17618578, "GWL": 30.97618578 }, "geometry": { "type": "Point", "coordinates": [ -81.199799100564121, 27.18790437330096, 35.97620000000461 ] } },
{ "type": "Feature", "properties": { "OBJECTID_1": 9, "Name": "improved south tower", "Point_x": 478204.651, "Point_y": 3006524.175, "Value": 35.68690638, "GWL": 30.48690638 }, "geometry": { "type": "Point", "coordinates": [ -81.220030083929018, 27.181204368941959, 34.486900000003516 ] } }
]
}
